"id","province_id","city_id","city","checksum","latitude","longitude","city_weibo","total_occurrences","word_occurrences"
"3","11","1","Dōngchéngqū 东城区","11#1","39.928584","116.416373","北京 东城区","730438","58326"
"4","11","2","Xīchéngqū 西城区","11#2","39.912445","116.36561","北京 西城区","495734","45492"
"5","11","3","Chóngwénqū 崇文区","11#3","39.889270","116.4312860","北京 崇文区","138176","20474"
"6","11","4","Xuānwǔqū 宣武区","11#4","39.87356","116.367591","北京 宣武区","200543","24702"
"7","11","5","Cháoyángqū 朝阳区","11#5","39.921034","116.443188","北京 朝阳区","2277471","112591"
"8","11","6","Fēngtáiqū 丰台区","11#6","39.858494","116.286322","北京 丰台区","338373","33062"
"9","11","7","Shíjǐngshānqū 石景山区","11#7","39.905656","116.222874","北京 石景山区","109658","16792"
"10","11","8","Hǎidiànqū 海淀区","11#8","39.95971","116.298012","北京 海淀区","1749466","94971"
"11","11","9","Méntóugōuqū 门头沟区","11#9","39.940342","116.101703","北京 门头沟区","20906","5864"
"12","11","11","Fángshānqū 房山区","11#11","39.749144","116.143267","北京 房山区","44626","9018"
"13","11","12","Tōngzhōuqū 通州区","11#12","39.909965","116.656437","北京 通州区","135174","18459"
"14","11","13","Shùnyìqū 顺义区","11#13","40.130211","116.654812","北京 顺义区","57826","10748"
"15","11","14","Chāngpíngqū 昌平区","11#14","40.22066","116.231204","北京 昌平区","147492","20151"
"16","11","15","Dàxīngqū 大兴区","11#15","39.726929","116.341395","北京 大兴区","98999","15383"
"17","11","16","Huáiróuqū 怀柔区","11#16","40.316211","116.632032","北京 怀柔区","27422","7255"
"18","11","17","Pínggǔqū 平谷区","11#17","40.140669","117.121102","北京 平谷区","21744","6409"
"19","11","28","Mìyúnxiàn 密云县","11#28","40.376322","116.842992","北京 密云县","25605","6084"
"20","11","29","Yánqìngxiàn 延庆县","11#29","40.456657","115.974978","北京 延庆县","14353","4487"
"21","11","1000","Unknown","11#1000","39.9042140","116.4074130","北京","4201096","148127"
"22","12","1","Hépíngqū 和平区","12#1","39.117106","117.214708","天津 和平区","118078","18486"
"23","12","2","Hédōngqū 河东区","12#2","39.123281","117.225607","天津 河东区","75363","12384"
"24","12","3","Héxīqū 河西区","12#3","39.109663","117.223564","天津 河西区","145774","19805"
"25","12","4","Nánkāiqū 南开区","12#4","39.138209","117.150748","天津 南开区","173028","22477"
"26","12","5","Héběiqū 河北区","12#5","39.148027","117.196841","天津 河北区","63371","11544"
"27","12","6","Hóngqiáoqū 红桥区","12#6","39.167346","117.151534","天津 红桥区","42308","8556"
"28","12","7","Tánggūqū 塘沽区","12#7","39.0407970","117.6585060","天津 塘沽区","53772","10505"
"29","12","8","Hàngūqū 汉沽区","12#8","39.2381710","117.7969830","天津 汉沽区","8491","2840"
"30","12","9","Dàgǎngqū 大港区","12#9","38.8411060","117.4714090","天津 大港区","21162","5293"
"31","12","10","Dōnglìqū 东丽区","12#10","39.086694","117.313969","天津 东丽区","22481","5968"
"32","12","11","Xīqīngqū 西青区","12#11","39.141325","117.00911","天津 西青区","30285","6735"
"33","12","12","Jīnnánqū 津南区","12#12","38.937404","117.357849","天津 津南区","15136","4314"
"34","12","13","Běichénqū 北辰区","12#13","39.221484","117.13244","天津 北辰区","23178","6192"
"35","12","14","Wǔqīngqū 武清区","12#14","39.38406","117.044414","天津 武清区","11933","3659"
"36","12","15","Bǎodǐqū 宝坻区","12#15","39.717574","117.309866","天津 宝坻区","10536","3457"
"37","12","21","Nínghéxiàn 宁河县","12#21","39.330613","117.824898","天津 宁河县","7199","2696"
"38","12","23","Jìnghǎixiàn 静海县","12#23","38.94755","116.974363","天津 静海县","16413","4510"
"39","12","25","Jìxiàn 蓟县","12#25","40.046062","117.408315","天津 蓟县","8837","2860"
"40","12","26","Bīnhǎixīnqū 滨海新区","12#26","39.003143","117.710687","天津 滨海新区","25954","6465"
"41","12","27","Bǎoshuìqū 保税区","12#27","38.9968380","117.7586970","天津 保税区","940","515"
"42","12","1000","Unknown","12#1000","39.084158","117.200983","天津","491974","41681"
"43","13","1","Shíjiāzhuāng 石家庄","13#1","38.042307","114.51486","河北 石家庄","371150","33910"
"44","13","2","Tángshān 唐山","13#2","39.630476","118.180407","河北 唐山","165867","20055"
"45","13","3","Qínhuángdǎo 秦皇岛","13#3","39.935377","119.600492","河北 秦皇岛","95688","14453"
"46","13","4","Hándān 邯郸","13#4","36.625604","114.539085","河北 邯郸","104764","15622"
"47","13","5","Xíngtái 邢台","13#5","37.070589","114.504844","河北 邢台","59420","10728"
"48","13","6","Bǎodìng 保定","13#6","38.873891","115.464806","河北 保定","139909","18452"
"49","13","7","Zhāngjiākǒu 张家口","13#7","40.824418","114.887543","河北 张家口","51995","10310"
"50","13","8","Chéngdé 承德","13#8","40.954071","117.962411","河北 承德","44858","8591"
"51","13","9","Cāngzhōu 沧州","13#9","38.304477","116.838835","河北 沧州","63687","11214"
"52","13","10","Lángfáng 廊坊","13#10","39.538047","116.683752","河北 廊坊","91623","14248"
"53","13","11","Héngshuǐ 衡水","13#11","37.735302","115.69868","河北 衡水","34482","7908"
"54","13","1000","Unknown","13#1000","38.037057","114.468665","河北","334359","27524"
"55","14","1","Tàiyuán 太原","14#1","37.870662","112.550619","山西 太原","286210","29719"
"56","14","2","Dàtóng 大同","14#2","40.076816","113.300126","山西 大同","51819","9855"
"57","14","3","Yángquán 阳泉","14#3","37.856658","113.580415","山西 阳泉","29453","6888"
"58","14","4","Chángzhì长治","14#4","36.195386","113.116255","山西 长治","40353","8616"
"59","14","5","Jìnchéng 晋城","14#5","35.49087","112.851768","山西 晋城","31484","7229"
"60","14","6","Shuòzhōu 朔州","14#6","39.331149","112.432714","山西 朔州","14191","4234"
"61","14","7","Jìnzhōng 晋中","14#7","37.687024","112.752695","山西 晋中","38128","7988"
"62","14","8","Yùnchéng 运城","14#8","35.026372","111.007324","山西 运城","47738","9182"
"63","14","9","Xīnzhōu 忻州","14#9","38.416364","112.734269","山西 忻州","21043","5344"
"64","14","10","Línfén 临汾","14#10","36.088067","111.51888","山西 临汾","38912","8043"
"65","14","23","Lǚliáng 吕梁","14#23","37.518314","111.144319","山西 吕梁","20888","5383"
"66","14","1000","Unknown","14#1000","37.873376","112.562569","山西","131832","17129"
"67","15","1","Hūhéhàotè 呼和浩特","15#1","40.84231","111.748847","内蒙古 呼和浩特","130317","18885"
"68","15","2","Bāotóu 包头","15#2","40.657447","109.840386","内蒙古 包头","70917","11994"
"69","15","3","Wūhǎi 乌海","15#3","39.690462","106.822809","内蒙古 乌海","14897","4344"
"70","15","4","Chìfēng 赤峰","15#4","42.257817","118.886856","内蒙古 赤峰","34830","7836"
"71","15","5","Tōngliáo 通辽","15#5","43.61944","122.265737","内蒙古 通辽","28586","6865"
"72","15","6","È'ěrduōsī 鄂尔多斯","15#6","39.608266","109.781327","内蒙古 鄂尔多斯","40216","8392"
"73","15","7","Hūlúnbèi'ěr 呼伦贝尔","15#7","49.211572","119.765739","内蒙古 呼伦贝尔","37813","7723"
"74","15","22","Xīng'ānméng 兴安盟","15#22","46.077561","122.067042","内蒙古 兴安盟","10884","3278"
"75","15","25","Xīlínguōlèméng 锡林郭勒盟","15#25","43.933454","116.048222","内蒙古 锡林郭勒盟","15233","4327"
"76","15","26","Wūlánchábù 乌兰察布盟","15#26","40.8887970","112.5800040","内蒙古 乌兰察布盟","10975","3531"
"77","15","28","Bāyànnào'ěrméng 巴彦淖尔盟","15#28","39.185286","109.322575","内蒙古 巴彦淖尔盟","12512","3750"
"78","15","29","Ālāshànméng 阿拉善盟","15#29","38.851892","105.728969","内蒙古 阿拉善盟","5154","1999"
"79","15","1000","Unknown","15#1000","40.817498","111.765618","内蒙古","378402","14252"
"80","21","1","Shěnyáng 沈阳","21#1","41.80572","123.43147","辽宁 沈阳","709329","50583"
"81","21","2","Dàlián 大连","21#2","38.914003","121.614682","辽宁 大连","653480","47343"
"82","21","3","Ānshān 鞍山","21#3","41.108546","122.994646","辽宁 鞍山","109978","15983"
"83","21","4","Fǔshùn 抚顺","21#4","41.880872","123.957208","辽宁 抚顺","58433","10052"
"84","21","5","Běnxī 本溪","21#5","41.294176","123.766485","辽宁 本溪","30333","6830"
"85","21","6","Dāndōng 丹东","21#6","40.127344","124.384913","辽宁 丹东","54220","10317"
"86","21","7","Jǐnzhōu 锦州","21#7","41.09512","121.127004","辽宁 锦州","65132","10867"
"87","21","8","Yíngkǒu 营口","21#8","40.674258","122.375857","辽宁 营口","54046","10186"
"88","21","9","Fùxīn 阜新","21#9","42.021619","121.670325","辽宁 阜新","28095","6497"
"89","21","10","Liáoyáng 辽阳","21#10","41.269493","123.172838","辽宁 辽阳","76075","9410"
"90","21","11","Pánjǐn 盘锦","21#11","41.119997","122.070714","辽宁 盘锦","41907","8302"
"91","21","12","Tiělǐng 铁岭","21#12","42.22297","123.726163","辽宁 铁岭","32193","7221"
"92","21","13","Cháoyáng 朝阳","21#13","41.573734","120.450372","辽宁 朝阳","24892","6013"
"93","21","14","Húlúdǎo 葫芦岛","21#14","40.711052","120.836932","辽宁 葫芦岛","32670","6736"
"94","21","1000","Unknown","21#1000","41.835441","123.42944","辽宁","300765","26728"
"95","22","1","Chángchūn 长春","22#1","43.817084","125.323542","吉林 长春","400463","35535"
"96","22","2","Jílín 吉林","22#2","43.837883","126.549572","吉林 吉林","83396","12690"
"97","22","3","Sìpíng 四平","22#3","43.16642","124.350398","吉林 四平","39040","8027"
"98","22","4","Liáoyuán 辽源","22#4","42.887918","125.143532","吉林 辽源","19680","5447"
"99","22","5","Tōnghuà 通化","22#5","41.728401","125.939697","吉林 通化","27868","6135"
"100","22","6","Báishān 白山","22#6","41.939994","126.423587","吉林 白山","22419","5960"
"101","22","7","Sōngyuán 松原","22#7","45.141789","124.825118","吉林 松原","24628","6166"
"102","22","8","Báichéng 白城","22#8","45.619641","122.839024","吉林 白城","20721","5476"
"103","22","24","Yánbiān Cháoxiānzúzìzhìzhōu 延边朝鲜族自治州","22#24","42.891254","129.508946","吉林 延边朝鲜族自治州","33937","6884"
"104","22","1000","Unknown","22#1000","43.837883","126.549572","吉林","169858","17457"
"105","23","1","Hā'ěrbīn 哈尔滨","23#1","45.803775","126.534967","黑龙江 哈尔滨","507760","39797"
"106","23","2","Qíqíhā'ěr 齐齐哈尔","23#2","47.354348","123.918186","黑龙江 齐齐哈尔","77851","12633"
"107","23","3","Jīxī 鸡西","23#3","45.295075","130.969333","黑龙江 鸡西","26345","6100"
"108","23","4","Hègǎng 鹤岗","23#4","47.349935","130.298101","黑龙江 鹤岗","19891","5088"
"109","23","5","Shuāngyāshān 双鸭山","23#5","46.646923","131.159553","黑龙江 双鸭山","21235","5127"
"110","23","6","Dàqìng 大庆","23#6","46.59019","125.104637","黑龙江 大庆","89979","13457"
"111","23","7","Yīchūn 伊春","23#7","47.727542","128.840661","黑龙江 伊春","16224","4464"
"112","23","8","Jiāmùsī 佳木斯","23#8","46.799923","130.318917","黑龙江 佳木斯","37802","7319"
"113","23","9","Qītáihé 七台河","23#9","45.771975","131.004915","黑龙江 七台河","11785","3437"
"114","23","10","Mǔdanjiāng 牡丹江","23#10","44.551653","129.633169","黑龙江 牡丹江","53540","9164"
"115","23","11","Hēihé 黑河","23#11","50.245297","127.52846","黑龙江 黑河","17321","4515"
"116","23","12","Suíhuà 绥化","23#12","46.636631","126.980006","黑龙江 绥化","23942","5674"
"117","23","27","Dàxīng'ānlǐng 大兴安岭","23#27","52.335206","124.711081","黑龙江 大兴安岭","10743","3454"
"118","23","1000","Unknown","23#1000","45.74217","126.662507","黑龙江","167997","18185"
"120","31","1","Huángpǔqū 黄浦区","31#1","31.231763","121.484443","上海 黄浦区","367385","37800"
"121","31","3","Lúwānqū 卢湾区","31#3","31.217921","121.470827","上海 卢湾区","198818","25613"
"122","31","4","Xúhuìqū 徐汇区","31#4","31.188523","121.436526","上海 徐汇区","793807","55648"
"123","31","5","Chángníngqū 长宁区","31#5","31.220366","121.424625","上海 长宁区","427527","41689"
"124","31","6","Jìng'ānqū 静安区","31#6","31.227905","121.447535","上海 静安区","276875","32816"
"125","31","7","Pǔtuóqū 普陀区","31#7","31.249554","121.396401","上海 普陀区","445931","39746"
"126","31","8","Zháběiqū 闸北区","31#8","31.247111","121.459382","上海 闸北区","278111","28877"
"127","31","9","Hóngkǒuqū 虹口区","31#9","31.264588","121.50512","上海 虹口区","344712","34429"
"128","31","10","Yángpǔqū 杨浦区","31#10","31.259547","121.526074","上海 杨浦区","451618","40194"
"129","31","12","Mǐnhángqū 闵行区","31#12","31.112842","121.381672","上海 闵行区","432513","38661"
"130","31","13","Bǎoshānqū 宝山区","31#13","31.405457","121.489612","上海 宝山区","297041","29412"
"131","31","14","Jiādìngqū 嘉定区","31#14","31.375602","121.2653","上海 嘉定区","124384","17131"
"132","31","15","Pǔdōngxīnqū 浦东新区","31#15","31.221959","121.544721","上海 浦东新区","1194403","73125"
"133","31","16","Jīnshānqū 金山区","31#16","30.741992","121.341969","上海 金山区","56531","10585"
"134","31","17","Sōngjiāngqū 松江区","31#17","31.032243","121.227747","上海 松江区","157378","21151"
"135","31","18","Qīngpǔqū 青浦区","31#18","31.150681","121.124178","上海 青浦区","67735","11652"
"136","31","19","Nánhuìqū 南汇区","31#19","31.039668","121.760192","上海 南汇区","57099","10297"
"137","31","20","Fèngxiánqū 奉贤区","31#20","30.918014","121.474039","上海 奉贤区","60463","10867"
"138","31","30","Chóngmíngxiàn 崇明县","31#30","31.623587","121.397417","上海 崇明县","25349","6497"
"139","31","1000","Unknown","31#1000","31.230393","121.473704","上海","2518455","121322"
"140","32","1","Nánjīng 南京","32#1","32.060255","118.796877","江苏 南京","1479947","80877"
"141","32","2","Wúxī 无锡","32#2","31.566145","120.303027","江苏 无锡","524648","42945"
"142","32","3","Xúzhōu 徐州","32#3","34.20475","117.284067","江苏 徐州","174251","21912"
"143","32","4","Chángzhōu 常州","32#4","31.810077","119.974454","江苏 常州","233144","25558"
"144","32","5","Sūzhōu 苏州","32#5","31.298886","120.585316","江苏 苏州","913766","59907"
"145","32","6","Nántōng 南通","32#6","31.979997","120.894324","江苏 南通","196158","22783"
"146","32","7","Liányúngǎng 连云港","32#7","34.596544","119.221282","江苏 连云港","77379","13379"
"147","32","8","Huái'ān 淮安","32#8","33.61036","119.015288","江苏 淮安","59520","10973"
"148","32","9","Yánchéng 盐城","32#9","33.347378","120.163561","江苏 盐城","86392","14074"
"149","32","10","Yángzhōu 扬州","32#10","32.39421","119.412966","江苏 扬州","166140","21298"
"150","32","11","Zhènjiāng 镇江","32#11","32.199147","119.45722","江苏 镇江","96175","14734"
"151","32","12","Tàizhōu 泰州","32#12","32.455778","119.923116","江苏 泰州","70542","11993"
"152","32","13","Sùqiān 宿迁","32#13","33.961994","118.275497","江苏 宿迁","42668","9182"
"153","32","1000","Unknown","32#1000","32.061707","118.763232","江苏","697218","44285"
"154","33","1","Hángzhōu 杭州","33#1","30.274089","120.155069","浙江 杭州","2012710","97544"
"155","33","2","Níngbō 宁波","33#2","29.868336","121.54399","浙江 宁波","796235","53517"
"156","33","3","Wēnzhōu 温州","33#3","27.994267","120.699367","浙江 温州","882569","54279"
"157","33","4","Jiāxīng 嘉兴","33#4","30.753924","120.758543","浙江 嘉兴","297489","29755"
"158","33","5","Húzhōu 湖州","33#5","30.894348","120.086823","浙江 湖州","125715","17376"
"159","33","6","Shàoxīng 绍兴","33#6","29.995762","120.586109","浙江 绍兴","199906","22857"
"160","33","7","Jīnhuá 金华","33#7","29.079059","119.647445","浙江 金华","228667","24830"
"161","33","8","Qúzhōu 衢州","33#8","28.93581","118.874375","浙江 衢州","54421","10249"
"162","33","9","Zhōushān 舟山","33#9","29.985451","122.206604","浙江 舟山","77021","12311"
"163","33","10","Táizhōu 台州","33#10","28.656386","121.420757","浙江 台州","264576","26999"
"164","33","11","Líshuǐ 丽水","33#11","28.46763","119.922796","浙江 丽水","72887","12022"
"165","33","1000","Unknown","33#1000","30.266245","120.153639","浙江","1021875","48623"
"166","34","1","Héféi 合肥","34#1","31.821448","117.227271","安徽 合肥","438105","38160"
"167","34","2","Wúhú 芜湖","34#2","31.352859","118.432941","安徽 芜湖","93623","14759"
"168","34","3","Bèngbù 蚌埠","34#3","32.916287","117.389719","安徽 蚌埠","50145","9523"
"169","34","4","Huáinán 淮南","34#4","32.625478","116.999933","安徽 淮南","47096","9101"
"170","34","5","Mǎ'ānshān 马鞍山","34#5","31.670452","118.50676","安徽 马鞍山","48659","9145"
"171","34","6","Huáiběi 淮北","34#6","33.955845","116.798265","安徽 淮北","26007","6094"
"172","34","7","Tónglíng 铜陵","34#7","30.94453","117.810841","安徽 铜陵","27051","6394"
"173","34","8","Ānqìng 安庆","34#8","30.524895","117.056857","安徽 安庆","58998","10267"
"174","34","10","Huángshān 黄山","34#10","29.714683","118.337476","安徽 黄山","35286","7869"
"175","34","11","Chúzhōu 滁州","34#11","32.301556","118.317107","安徽 滁州","35590","7504"
"176","34","12","Fùyáng 阜阳","34#12","32.890124","115.814205","安徽 阜阳","49065","9568"
"177","34","13","Sùzhōu 宿州","34#13","33.639394","116.985301","安徽 宿州","25311","5853"
"178","34","14","Cháohú 巢湖","34#14","31.597853","117.864722","安徽 巢湖","19033","5033"
"179","34","15","Lù'ān 六安","34#15","31.745011","116.505693","安徽 六安","27420","6421"
"180","34","16","Bózhōu 亳州","34#16","33.844582","115.778676","安徽 亳州","21955","5633"
"181","34","17","Chízhōu 池州","34#17","30.674219","117.495707","安徽 池州","15979","4361"
"182","34","18","Xuānchéng 宣城","34#18","30.940718","118.758816","安徽 宣城","27071","6100"
"183","34","1000","Unknown","34#1000","31.861184","117.284923","安徽","238710","23473"
"184","35","1","Fúzhōu 福州","35#1","26.074508","119.296494","福建 福州","1050444","64134"
"185","35","2","Xiàmén 厦门","35#2","24.479836","118.08942","福建 厦门","997304","65134"
"186","35","3","Pútián 莆田","35#3","25.454085","119.007777","福建 莆田","83325","13305"
"187","35","4","Sānmíng 三明","35#4","26.263432","117.638709","福建 三明","92007","13272"
"188","35","5","Quánzhōu 泉州","35#5","24.907574","118.586812","福建 泉州","601194","44447"
"189","35","6","Zhāngzhōu 漳州","35#6","24.513321","117.647363","福建 漳州","132952","17042"
"190","35","7","Nánpíng 南平","35#7","26.641769","118.177708","福建 南平","82768","12381"
"191","35","8","Lóngyán 龙岩","35#8","25.100632","117.03403","福建 龙岩","73153","11709"
"192","35","9","Níngdé 宁德","35#9","26.666291","119.526287","福建 宁德","102532","14360"
"193","35","1000","Unknown","35#1000","26.099933","119.296506","福建","328663","30844"
"194","36","1","Nánchāng 南昌","36#1","28.68316","115.858089","江西 南昌","401461","34875"
"195","36","2","Jǐngdézhèn 景德镇","36#2","29.268836","117.17842","江西 景德镇","37251","7649"
"196","36","3","Píngxiāng 萍乡","36#3","27.622865","113.854676","江西 萍乡","27676","6379"
"197","36","4","Jiǔjiāng 九江","36#4","29.705103","116.001951","江西 九江","90835","13535"
"198","36","5","Xīnyú 新余","36#5","27.817819","114.91741","江西 新余","24688","6155"
"199","36","6","Yīngtán 鹰潭","36#6","28.260189","117.069202","江西 鹰潭","17242","4773"
"200","36","7","Gànzhōu 赣州","36#7","25.829209","114.933553","江西 赣州","100854","14553"
"201","36","8","Jí'ān 吉安","36#8","27.113039","114.992913","江西 吉安","28958","6848"
"202","36","9","Yíchūn 宜春","36#9","27.796561","114.395108","江西 宜春","38001","7978"
"203","36","10","Fǔzhōu 抚州","36#10","27.9492","116.358176","江西 抚州","29577","6433"
"204","36","11","Shàngráo 上饶","36#11","28.454863","117.943433","江西 上饶","47151","8657"
"205","36","1000","Unknown","36#1000","28.674424","115.909175","江西","183404","20453"
"207","37","1","Jǐnán 济南","37#1","36.665282","116.994917","山东 济南","548893","44715"
"208","37","2","Qīngdǎo 青岛","37#2","36.06722","120.382504","山东 青岛","619679","47010"
"209","37","3","Zībó 淄博","37#3","36.813497","118.055007","山东 淄博","124982","17663"
"210","37","4","Zǎozhuāng 枣庄","37#4","34.810488","117.323725","山东 枣庄","47271","9293"
"211","37","5","Dōngyíng 东营","37#5","37.434751","118.674767","山东 东营","62397","11118"
"212","37","6","Yāntái 烟台","37#6","37.463819","121.447926","山东 烟台","172479","21454"
"213","37","7","Wéifāng 潍坊","37#7","36.706691","119.16193","山东 潍坊","130167","18117"
"214","37","8","Jìníng 济宁","37#8","35.414864","116.587259","山东 济宁","93275","14937"
"215","37","9","Tài'ān 泰安","37#9","36.200252","117.087614","山东 泰安","72050","12859"
"216","37","10","Wēihǎi 威海","37#10","37.513068","122.12042","山东 威海","82258","13367"
"217","37","11","Rìzhào 日照","37#11","35.416377","119.526888","山东 日照","48771","9995"
"218","37","12","Láiwú 莱芜","37#12","36.213691","117.676731","山东 莱芜","25702","6553"
"219","37","13","Línyí 临沂","37#13","35.051712","118.347707","山东 临沂","122304","18120"
"220","37","14","Dézhōu 德州","37#14","37.434093","116.357465","山东 德州","47095","9314"
"221","37","15","Liáochéng 聊城","37#15","36.456704","115.985371","山东 聊城","60696","11079"
"222","37","16","Bīnzhōu 滨州","37#16","37.38199","117.970703","山东 滨州","45020","9214"
"223","37","17","Hézé 菏泽","37#17","35.23375","115.480656","山东 菏泽","37504","8110"
"224","37","1000","Unknown","37#1000","36.668627","117.020411","山东","562407","36087"
"225","41","1","Zhèngzhōu 郑州","41#1","34.7466","113.625368","河南 郑州","872885","56911"
"226","41","2","Kāifēng 开封","41#2","34.797239","114.307582","河南 开封","61124","11021"
"227","41","3","Luòyáng 洛阳","41#3","34.618452","112.45429","河南 洛阳","175767","21169"
"228","41","4","Píngdǐngshān 平顶山","41#4","33.76619","113.192814","河南 平顶山","53063","9724"
"229","41","5","Ānyáng 安阳","41#5","36.097593","114.392756","河南 安阳","59540","10863"
"230","41","6","Hèbì 鹤壁","41#6","35.747225","114.297273","河南 鹤壁","17863","4844"
"231","41","7","Xīnxiāng 新乡","41#7","35.303004","113.9268","河南 新乡","91522","13782"
"232","41","8","Jiāozuò 焦作","41#8","35.215893","113.241823","河南 焦作","57673","10157"
"233","41","9","Púyáng 濮阳","41#9","35.762141","115.029331","河南 濮阳","37049","8088"
"234","41","10","Xǔchāng 许昌","41#10","34.035506","113.85264","河南 许昌","56636","10245"
"235","41","11","Luòhé 漯河","41#11","33.581413","114.016539","河南 漯河","26302","6156"
"236","41","12","Sānménxiá 三门峡","41#12","34.772424","111.20023","河南 三门峡","28066","6509"
"237","41","13","Nányáng 南阳","41#13","32.990615","112.528345","河南 南阳","62222","11077"
"238","41","14","Shāngqiū 商丘","41#14","34.414183","115.656394","河南 商丘","52128","10231"
"239","41","15","Xìnyáng 信阳","41#15","32.123233","114.068871","河南 信阳","52457","9582"
"240","41","16","Zhōukǒu 周口","41#16","33.618686","114.657616","河南 周口","33911","7382"
"241","41","17","Zhùmǎdiàn 驻马店","41#17","33.011529","114.022298","河南 驻马店","30416","6937"
"242","41","18","Unknown","41#18","34.76819","113.687228","河南","7405","2559"
"243","41","1000","Unknown","41#1000","34.76819","113.687228","河南","361502","29757"
"245","42","1","Wǔhàn 武汉","42#1","30.593087","114.305357","湖北 武汉","1716580","86004"
"246","42","2","Huángshí 黄石","42#2","30.199652","115.03852","湖北 黄石","67024","11760"
"247","42","3","Shíyàn 十堰","42#3","32.629397","110.797991","湖北 十堰","43687","8896"
"248","42","5","Yíchāng 宜昌","42#5","30.691967","111.286471","湖北 宜昌","101436","14709"
"249","42","6","Xiāngyáng 襄阳","42#6","32.008986","112.122415","湖北 襄阳","72315","12103"
"250","42","7","Èzhōu 鄂州","42#7","30.39194","114.894843","湖北 鄂州","17928","4548"
"251","42","8","Jīngmén 荆门","42#8","31.035423","112.199265","湖北 荆门","35331","7760"
"252","42","9","Xiàogǎn 孝感","42#9","30.924568","113.916903","湖北 孝感","42141","8232"
"253","42","10","Jīngzhōu 荆州","42#10","30.335165","112.239741","湖北 荆州","80539","12798"
"254","42","11","Huánggāng 黄冈","42#11","30.453906","114.872316","湖北 黄冈","37227","8254"
"255","42","12","Xiánníng 咸宁","42#12","29.841443","114.322492","湖北 咸宁","22142","5551"
"256","42","13","Suízhōu 随州","42#13","31.689958","113.382842","湖北 随州","19702","5198"
"257","42","28","Ēnshī Tǔjiāzú Miáozúzìzhìzhōu 恩施土家族苗族自治州","42#28","30.272204","109.488162","湖北 恩施土家族苗族自治州","29789","6581"
"258","42","29","Xiāntáo 仙桃","42#29","30.362641","113.454593","湖北 仙桃","7241","2450"
"259","42","30","Qiánjiāng","42#30","30.40211","112.900079","湖北 潜江","6497","2132"
"260","42","31","Tiānmén 天门","42#31","30.663372","113.16653","湖北 天门","4838","1886"
"261","42","32","Shénnóngjià 神农架","42#32","31.74497","110.675733","湖北 神农架","2272","1154"
"262","42","1000","Unknown","42#1000","30.545861","114.341921","湖北","327156","28531"
"263","43","1","Chángshā 长沙","43#1","28.228209","112.938814","湖南 长沙","888116","58611"
"264","43","2","Zhūzhōu 株洲","43#2","27.827827","113.133775","湖南 株洲","81611","12918"
"265","43","3","Xiāngtán 湘潭","43#3","27.829738","112.944049","湖南 湘潭","74221","12674"
"266","43","4","Héngyáng 衡阳","43#4","26.89384","112.5719","湖南 衡阳","80293","12795"
"267","43","5","Shàoyáng 邵阳","43#5","27.238893","111.467791","湖南 邵阳","32554","7119"
"268","43","6","Yuèyáng 岳阳","43#6","29.357104","113.128958","湖南 岳阳","62248","10836"
"269","43","7","Chángdé 常德","43#7","29.031673","111.698497","湖南 常德","58292","10359"
"270","43","8","Zhāngjiājiè 张家界","43#8","29.116525","110.479221","湖南 张家界","20064","5477"
"271","43","9","Yìyáng 益阳","43#9","28.55386","112.35518","湖南 益阳","30818","7139"
"272","43","10","Chēnzhōu 郴州","43#10","25.77051","113.014718","湖南 郴州","58799","10218"
"273","43","11","Yǒngzhōu 永州","43#11","26.420394","111.613445","湖南 永州","24146","5776"
"274","43","12","Huáihuà 怀化","43#12","27.554978","109.998488","湖南 怀化","35179","7275"
"275","43","13","Lóudǐ 娄底","43#13","27.701693","111.996001","湖南 娄底","26137","6415"
"276","43","31","Xiāngxī Tǔjiāzú Miáozúzìzhìzhōu 湘西土家族苗族自治州","43#31","28.311834","109.738842","湖南 湘西土家族苗族自治州","17208","4717"
"277","43","1000","Unknown","43#1000","28.112444","112.98381","湖南","304761","25393"
"278","44","1","Guǎngzhōu 广州","44#1","23.129163","113.264435","广东 广州","8035356","289506"
"279","44","2","Sháoguān 韶关","44#2","24.810403","113.597522","广东 韶关","281012","27345"
"280","44","3","Shēnzhèn 深圳","44#3","22.543099","114.057868","广东 深圳","3721533","156539"
"281","44","4","Zhūhǎi 珠海","44#4","22.270715","113.576726","广东 珠海","747253","56231"
"282","44","5","Shàntóu 汕头","44#5","23.353299","116.681838","广东 汕头","984709","56253"
"283","44","6","Fóshān 佛山","44#6","23.021548","113.121416","广东 佛山","2125566","114604"
"284","44","7","Jiāngmén 江门","44#7","22.578738","113.081901","广东 江门","807370","57465"
"285","44","8","Zhànjiāng 湛江","44#8","21.270702","110.359387","广东 湛江","384383","34532"
"286","44","9","Màomíng 茂名","44#9","21.662999","110.925456","广东 茂名","243401","24194"
"287","44","12","Zhàoqìng 肇庆","44#12","23.047192","112.465091","广东 肇庆","405746","36653"
"288","44","13","Huìzhōu 惠州","44#13","23.111847","114.416196","广东 惠州","734604","47270"
"289","44","14","Méizhōu 梅州","44#14","24.288384","116.122469","广东 梅州","209336","21377"
"290","44","15","Shànwěi 汕尾","44#15","22.786211","115.375279","广东 汕尾","228704","21344"
"291","44","16","Héyuán 河源","44#16","23.743538","114.700447","广东 河源","169827","18450"
"292","44","17","Yángjiāng 阳江","44#17","21.857958","111.982232","广东 阳江","178343","19597"
"293","44","18","Qīngyuǎn 清远","44#18","23.681764","113.056031","广东 清远","286337","27600"
"294","44","19","Dōngguǎn 东莞","44#19","23.020536","113.751765","广东 东莞","1716586","94722"
"295","44","20","Zhōngshān 中山","44#20","22.516686","113.392795","广东 中山","930006","66805"
"296","44","51","Cháozhōu 潮州","44#51","23.656972","116.622597","广东 潮州","333174","28205"
"297","44","52","Jiēyáng 揭阳","44#52","23.549993","116.372831","广东 揭阳","326214","27602"
"298","44","53","Yúnfú 云浮","44#53","22.915094","112.044491","广东 云浮","151468","18289"
"299","44","1000","Unknown","44#1000","23.132191","113.266531","广东","2029230","103062"
"300","45","1","Nánníng 南宁","45#1","22.817642","108.365631","广西 南宁","566906","43646"
"301","45","2","Liǔzhōu 柳州","45#2","24.325502","109.415953","广西 柳州","11311","3362"
"302","45","3","Guìlín 桂林","45#3","25.273566","110.290195","广西 桂林","177976","20710"
"303","45","4","Wúzhōu 梧州","45#4","23.47691","111.27917","广西 梧州","74069","12822"
"304","45","5","Běihǎi 北海","45#5","21.481217","109.119899","广西 北海","58958","10672"
"305","45","6","Fángchénggǎng 防城港","45#6","21.615298","108.347253","广西 防城港","22808","5407"
"306","45","7","Qīnzhōu 钦州","45#7","21.980968","108.654543","广西 钦州","42235","8272"
"307","45","8","Guìgǎng 贵港","45#8","23.111531","109.598927","广西 贵港","33735","6915"
"308","45","9","Yùlín 玉林","45#9","22.636379","110.164756","广西 玉林","91579","13107"
"309","45","10","Bǎisè 百色","45#10","23.902371","106.618275","广西 百色","48941","8607"
"310","45","11","Hèzhōu 贺州","45#11","24.40357","111.566753","广西 贺州","28626","6687"
"311","45","12","Héchí 河池","45#12","24.692931","108.085261","广西 河池","27069","6153"
"312","45","13","Unknown","45#13","22.815478","108.327546","广西","920","502"
"313","45","14","Unknown","45#14","22.815478","108.327546","广西","1218","613"
"314","45","21","Nánníng 南宁","45#21","22.817642","108.365631","广西 南宁","38118","7712"
"315","45","22","Liǔzhōu 柳州","45#22","24.325502","109.415953","广西 柳州","154934","18749"
"316","45","1000","Unknown","45#1000","22.815478","108.327546","广西","561330","40304"
"318","46","1","Hǎikǒu 海口","46#1","20.030765","110.328873","海南 海口","420248","35112"
"319","46","2","Sānyà 三亚","46#2","18.252847","109.511909","海南 三亚","107242","15909"
"320","46","90","Unknown","46#90","20.017378","110.349229","海南 其他","44679","8717"
"321","46","1000","Unknown","46#1000","20.017378","110.349229","海南","122198","15918"
"322","50","1","Wànzhōuqū 万州区","50#1","30.807823","108.408746","重庆 万州区","45329","8980"
"323","50","2","Fúlíngqū 涪陵区","50#2","29.703113","107.389298","重庆 涪陵区","17402","4507"
"324","50","3","Yúzhōngqū 渝中区","50#3","29.552747","106.568889","重庆 渝中区","138311","19269"
"325","50","4","Dàdùkǒuqū 大渡口区","50#4","29.484479","106.48262","重庆 大渡口区","21864","5382"
"326","50","5","Jiāngběiqū 江北区","50#5","29.606521","106.574161","重庆 江北区","158618","20427"
"327","50","6","Shāpíngbàqū 沙坪坝区","50#6","29.541105","106.457756","重庆 沙坪坝区","126334","17374"
"328","50","7","Jiǔlóngpōqū 九龙坡区","50#7","29.50235","106.511084","重庆 九龙坡区","87390","13561"
"329","50","8","Nán'ànqū 南岸区","50#8","29.522454","106.563584","重庆 南岸区","111148","16336"
"330","50","9","Běibèiqū 北碚区","50#9","29.805027","106.39557","重庆 北碚区","30081","6768"
"331","50","10","Wànshèngqū 万盛区","50#10","28.964425","106.928483","重庆 万盛区","4651","1951"
"332","50","11","Shuāngqiáoqū 双桥区","50#11","29.485882","105.78016","重庆 双桥区","2444","1154"
"333","50","12","Yúběiqū 渝北区","50#12","29.718137","106.631034","重庆 渝北区","83320","13949"
"334","50","13","Bānánqū 巴南区","50#13","29.402399","106.540218","重庆 巴南区","21490","5308"
"335","50","14","Qiánjiāngqū 黔江区","50#14","29.533183","108.770864","重庆 黔江区","6148","2271"
"336","50","15","Chángshòuqū 长寿区","50#15","29.832586","107.076662","重庆 长寿区","8594","2719"
"337","50","22","Qíjiāngxiàn 綦江县","50#22","29.028067","106.651362","重庆 綦江县","7839","2703"
"338","50","23","Tóngnánxiàn 潼南县","50#23","30.19098","105.840573","重庆 潼南县","4366","1725"
"339","50","24","Tóngliángxiàn 铜梁县","50#24","29.84476","106.056447","重庆 铜梁县","5221","1948"
"340","50","25","Dàzúxiàn 大足县","50#25","29.707166","105.721659","重庆 大足县","4412","1667"
"341","50","26","Róngchāngxiàn 荣昌县","50#26","29.405138","105.59457","重庆 荣昌县","6623","2471"
"342","50","27","Bìshānxiàn 璧山县","50#27","29.592017","106.227385","重庆 璧山县","6041","2384"
"343","50","28","Liángpíngxiàn 梁平县","50#28","30.674059","107.802126","重庆 梁平县","2506","1225"
"344","50","29","Chéngkǒuxiàn 城口县","50#29","31.947696","108.664575","重庆 城口县","1809","930"
"345","50","30","Fēngdūxiàn 丰都县","50#30","29.863565","107.730833","重庆 丰都县","5071","1793"
"346","50","31","Diànjiāngxiàn 垫江县","50#31","30.331999","107.351678","重庆 垫江县","2998","1332"
"347","50","32","Wǔlóngxiàn 武隆县","50#32","29.325987","107.759267","重庆 武隆县","1924","891"
"348","50","33","Zhōngxiàn 忠县","50#33","30.28843","108.03546","重庆 忠县","3300","1452"
"349","50","34","Kāixiàn 开县","50#34","31.160708","108.393135","重庆 开县","7174","2425"
"350","50","35","Yúnyángxiàn 云阳县","50#35","30.930615","108.697293","重庆 云阳县","4247","1719"
"351","50","36","Fèngjiéxiàn 奉节县","50#36","31.01861","109.463893","重庆 奉节县","4828","1894"
"352","50","37","Wūshānxiàn 巫山县","50#37","31.074842","109.879305","重庆 巫山县","3781","1558"
"353","50","38","Wūxīxiàn 巫溪县","50#38","31.399264","109.632186","重庆 巫溪县","2442","1149"
"354","50","40","Shízhù Tǔjiāzúzìzhìxiàn 石柱土家族自治县","50#40","29.999285","108.114069","重庆 石柱土家族自治县","2380","1038"
"355","50","41","Xiùshān Tǔjiāzú Miáozúzìzhìxiàn 秀山土家族苗族自治县","50#41","28.448689","108.988177","重庆 秀山土家族苗族自治县","2268","1095"
"356","50","42","Yǒuyáng Tǔjiāzú Miáozúzìzhìxiàn 酉阳土家族苗族自治县","50#42","28.841257","108.767223","重庆 酉阳土家族苗族自治县","3129","1428"
"357","50","43","Péngshuǐ Miáozú Tǔjiāzúzìzhìxiàn 彭水苗族土家族自治县","50#43","29.293817","108.165591","重庆 彭水苗族土家族自治县","2689","1257"
"358","50","81","Jiāngjīnshì 江津市","50#81","29.2873093","106.2533652","重庆 江津市","10349","3155"
"359","50","82","Héchuānshì 合川市","50#82","29.9788980","106.2702030","重庆 合川市","16390","4195"
"360","50","83","Yǒngchuānshì 永川市","50#83","29.3549340","105.9062350","重庆 永川市","14382","4191"
"361","50","84","Nánchuānshì 南川市","50#84","29.159177","107.099229","重庆 南川市","5636","2285"
"362","50","1000","Unknown","50#1000","29.56301","106.551557","重庆","494046","40752"
"363","51","1","Chéngdū 成都","51#1","30.658601","104.064856","四川 成都","1860528","94931"
"364","51","3","Zìgòng 自贡","51#3","29.33903","104.778442","四川 自贡","43214","8423"
"365","51","4","Pānzhīhuā 攀枝花","51#4","26.582347","101.718637","四川 攀枝花","21978","5750"
"366","51","5","Lúzhōu 泸州","51#5","28.871864","105.442263","四川 泸州","47727","9230"
"367","51","6","Déyáng 德阳","51#6","31.126856","104.398021","四川 德阳","101922","14471"
"368","51","7","Miányáng 绵阳","51#7","31.46745","104.679114","四川 绵阳","122940","17192"
"369","51","8","Guǎngyuán 广元","51#8","32.435435","105.843357","四川 广元","27612","6660"
"370","51","9","Suìníng 遂宁","51#9","30.532847","105.592898","四川 遂宁","38223","8027"
"371","51","10","Nèijiāng 内江","51#10","29.580237","105.058352","四川 内江","33494","7063"
"372","51","11","Lèshān 乐山","51#11","29.552064","103.765623","四川 乐山","69341","11645"
"373","51","13","Nánchōng 南充","51#13","30.837888","106.110595","四川 南充","69284","11291"
"374","51","14","Méishān 眉山","51#14","30.076015","103.848462","四川 眉山","27734","6225"
"375","51","15","Yíbīn 宜宾","51#15","28.751878","104.643373","四川 宜宾","48376","8936"
"376","51","16","Guǎng'ān 广安","51#16","30.45593","106.633204","四川 广安","22697","5550"
"377","51","17","Dázhōu 达州","51#17","31.209572","107.468023","四川 达州","42576","8104"
"378","51","18","Yǎ'ān 雅安","51#18","29.980514","103.013163","四川 雅安","24610","5917"
"379","51","19","Bāzhōng 巴中","51#19","31.865236","106.744729","四川 巴中","15466","4259"
"380","51","20","Zīyáng 资阳","51#20","30.129184","104.629038","四川 资阳","23927","5606"
"381","51","32","Ābà 阿坝","51#32","31.899413","102.224653","四川 阿坝","7401","2606"
"382","51","33","Gānzī 甘孜","51#33","30.04952","101.962311","四川 甘孜","9675","3308"
"383","51","34","Liángshān 凉山","51#34","27.881429","102.267726","四川 凉山","23130","5673"
"384","51","1000","Unknown","51#1000","30.651652","104.075931","四川","297467","29353"
"385","52","1","Guìyáng 贵阳","52#1","26.647449","106.630143","贵州 贵阳","361563","33069"
"386","52","2","Liùpánshuǐ 六盘水","52#2","26.592663","104.830361","贵州 六盘水","22705","5396"
"387","52","3","Zūnyì 遵义","52#3","27.725654","106.927389","贵州 遵义","91942","13409"
"388","52","4","Ānshùn 安顺","52#4","26.253072","105.947594","贵州 安顺","23208","5796"
"389","52","22","Tóngrén 铜仁","52#22","27.731515","109.189598","贵州 铜仁","25465","5819"
"390","52","23","Qiánxīnán 黔西南","52#23","25.087825","104.906397","贵州 黔西南","28934","6831"
"391","52","24","Bìjié 毕节","52#24","27.302589","105.283992","贵州 毕节","17234","4689"
"392","52","26","Qiándōngnán 黔东南","52#26","26.58355","107.982828","贵州 黔东南","44564","7877"
"393","52","27","Qiánnán 黔南","52#27","26.254092","107.52214","贵州 黔南","28273","5935"
"394","52","1000","Unknown","52#1000","26.598026","106.707116","贵州","132744","17521"
"395","53","1","Kūnmíng 昆明","53#1","25.037721","102.722202","云南 昆明","479656","40933"
"396","53","3","Qǔjìng 曲靖","53#3","25.49001","103.796167","云南 曲靖","28729","6797"
"397","53","4","Yùxī 玉溪","53#4","24.352036","102.546543","云南 玉溪","32535","7398"
"398","53","5","Bǎoshān 保山","53#5","25.112065","99.161471","云南 保山","15539","4641"
"399","53","6","Zhāotōng 昭通","53#6","27.338257","103.717465","云南 昭通","11627","3629"
"400","53","23","Chǔxióng 楚雄","53#23","25.045532","101.528069","云南 楚雄","17389","4865"
"401","53","25","Hónghé 红河","53#25","23.36313","103.374799","云南 红河","37618","8069"
"402","53","26","Wénshān 文山","53#26","23.368817","104.251045","云南 文山","13550","3921"
"403","53","27","Sīmáo 思茅","53#27","22.78691","100.977165","云南 思茅","26810","6416"
"404","53","28","Xīshuāngbǎnnà 西双版纳","53#28","22.008193","100.797353","云南 西双版纳","30317","6617"
"405","53","29","Dàlǐ 大理","53#29","25.606486","100.267638","云南 大理","33406","7874"
"406","53","31","Déhóng 德宏","53#31","24.433353","98.584895","云南 德宏","15927","4414"
"407","53","32","Lìjiāng 丽江","53#32","26.876774","100.230376","云南 丽江","38234","8421"
"408","53","33","Nùjiāng 怒江","53#33","25.852548","98.853097","云南 怒江","5027","1907"
"409","53","34","Díqìng 迪庆","53#34","27.818882","99.702234","云南 迪庆","6729","2398"
"410","53","35","Líncāng 临沧","53#35","23.877573","100.079583","云南 临沧","10181","3480"
"411","53","1000","Unknown","53#1000","25.045359","102.709812","云南","128450","17687"
"412","54","1","Lāsà 拉萨","54#1","29.645554","91.140856","西藏 拉萨","34307","7968"
"413","54","21","Chāngdū 昌都","54#21","31.140969","97.17202","西藏 昌都","6662","2573"
"414","54","22","Shānnán 山南","54#22","29.237137","91.773134","西藏 山南","7790","2800"
"415","54","23","Rìkāzé 日喀则","54#23","29.26687","88.880583","西藏 日喀则","10582","3418"
"416","54","24","Nǎqū 那曲","54#24","31.476198","92.051241","西藏 那曲","9429","2969"
"417","54","25","Ālǐ 阿里","54#25","32.501034","80.105652","西藏 阿里","8676","3149"
"418","54","26","Línzhī 林芝","54#26","29.649128","94.36149","西藏 林芝","7958","2841"
"419","54","1000","Unknown","54#1000","29.647951","91.117006","西藏","20930","5556"
"420","61","1","Xī'ān 西安","61#1","34.264987","108.944269","陕西 西安","1026379","62689"
"421","61","2","Tóngchuān 铜川","61#2","34.896747","108.945142","陕西 铜川","13838","4394"
"422","61","3","Bǎojī 宝鸡","61#3","34.362053","107.237539","陕西 宝鸡","52651","9801"
"423","61","4","Xiányáng 咸阳","61#4","34.329563","108.709003","陕西 咸阳","59467","10755"
"424","61","5","Wèinán 渭南","61#5","34.499995","109.509786","陕西 渭南","36382","7510"
"425","61","6","Yán'ān 延安","61#6","36.585424","109.489635","陕西 延安","22200","5375"
"426","61","7","Hànzhōng 汉中","61#7","33.06748","107.023323","陕西 汉中","27310","6637"
"427","61","8","Yúlín 榆林","61#8","38.285342","109.734556","陕西 榆林","31883","6953"
"428","61","9","Ānkāng 安康","61#9","32.684781","109.029303","陕西 安康","20384","5203"
"429","61","10","Shāng Luò 商洛","61#10","33.870422","109.940477","陕西 商洛","8915","3070"
"430","61","1000","Unknown","61#1000","34.265472","108.954239","陕西","269575","23520"
"431","62","1","Lánzhōu 兰州","62#1","36.061255","103.834377","甘肃 兰州","174873","21636"
"432","62","2","Jiāyùguān 嘉峪关","62#2","39.77313","98.289152","甘肃 嘉峪关","9522","3269"
"433","62","3","Jīnchāng 金昌","62#3","38.520089","102.188043","甘肃 金昌","6427","2473"
"434","62","4","Báiyín 白银","62#4","36.544827","104.137619","甘肃 白银","11523","3710"
"435","62","5","Tiānshuǐ 天水","62#5","34.580862","105.724947","甘肃 天水","19649","5441"
"436","62","6","Wǔwēi 武威","62#6","37.928336","102.638009","甘肃 武威","8623","2966"
"437","62","7","Zhāngyè 张掖","62#7","38.925646","100.449822","甘肃 张掖","9172","3263"
"438","62","8","Píngliáng 平凉","62#8","35.542686","106.665106","甘肃 平凉","10374","3488"
"439","62","9","Jiǔquán 酒泉","62#9","39.732488","98.494411","甘肃 酒泉","13824","4429"
"440","62","10","Qìngyáng 庆阳","62#10","35.738668","107.632469","甘肃 庆阳","9560","3193"
"441","62","24","Dìngxī 定西","62#24","35.580623","104.626278","甘肃 定西","7439","2655"
"442","62","26","Lǒngnán 陇南","62#26","33.400766","104.922071","甘肃 陇南","7437","2620"
"443","62","29","Línxià 临夏","62#29","35.601182","103.210539","甘肃 临夏","5085","2020"
"444","62","30","Gānnán 甘南","62#30","34.983296","102.911262","甘肃 甘南","3881","1602"
"445","62","1000","Unknown","62#1000","36.059421","103.826308","甘肃","49423","9495"
"446","63","1","Xīníng 西宁","63#1","36.617085","101.778208","青海 西宁","51098","10292"
"447","63","21","Hǎidōng 海东","63#21","36.502216","102.104346","青海 海东","6686","2498"
"448","63","22","Hǎiběi 海北","63#22","36.954273","100.900931","青海 海北","6530","2504"
"449","63","23","Huángnán 黄南","63#23","35.519549","102.015248","青海 黄南","6121","2426"
"450","63","25","Hǎinán 海南","63#25","36.286438","100.620373","青海 海南","6854","2568"
"451","63","26","Guǒluò 果洛","63#26","34.471675","100.245027","青海 果洛","7705","3027"
"452","63","27","Yùshù 玉树","63#27","33.005822","97.006636","青海 玉树","6631","2579"
"453","63","28","Hǎixī 海西","63#28","37.377139","97.369752","青海 海西","4211","1676"
"454","63","1000","Unknown","63#1000","36.620989","101.779988","青海","32802","8139"
"455","64","1","Yínchuān 银川","64#1","38.487194","106.230909","宁夏 银川","94726","14938"
"456","64","2","Shízuǐshān 石嘴山","64#2","39.019057","106.368062","宁夏 石嘴山","16656","4796"
"457","64","3","Wúzhōng 吴忠","64#3","37.997476","106.198225","宁夏 吴忠","18328","5335"
"458","64","4","Gùyuán 固原","64#4","36.015855","106.24261","宁夏 固原","15715","4370"
"459","64","5","Zhōngwèi 中卫","64#5","37.516892","105.173837","宁夏 中卫","1660","822"
"460","64","1000","Unknown","64#1000","38.471318","106.258754","宁夏","33749","7627"
"461","65","1","Wūlǔmùqí 乌鲁木齐","65#1","43.825645","87.616823","新疆 乌鲁木齐","246742","26520"
"462","65","2","Kèlāmǎyī 克拉玛依","65#2","45.579889","84.889207","新疆 克拉玛依","25849","6041"
"463","65","21","Tǔlǔfān 吐鲁番","65#21","42.951384","89.189655","新疆 吐鲁番","7133","2659"
"464","65","22","Hāmì 哈密","65#22","42.818501","93.514917","新疆 哈密","15981","4612"
"465","65","23","Chāngjí 昌吉","65#23","44.011183","87.308225","新疆 昌吉","20006","5335"
"466","65","27","Bó'ěrtǎlā 博尔塔拉","65#27","44.905588","82.066159","新疆 博尔塔拉","6346","2402"
"467","65","28","Bāyīnguōlèng 巴音郭楞","65#28","41.764131","86.145267","新疆 巴音郭楞","19106","5001"
"468","65","29","Ākèsū 阿克苏","65#29","41.168779","80.260605","新疆 阿克苏","9291","3021"
"469","65","30","Kèzīlèsū 克孜勒苏","65#30","39.714556","76.167644","新疆 克孜勒苏","3105","1369"
"470","65","31","Kāshí 喀什","65#31","39.4704","75.989755","新疆 喀什","9121","3273"
"471","65","32","Hétián 和田","65#32","37.114157","79.922211","新疆 和田","4505","1915"
"472","65","40","Yīlí 伊犁","65#40","43.916862","81.324096","新疆 伊犁","22252","5414"
"473","65","42","Tǎchéng 塔城","65#42","46.745364","82.980317","新疆 塔城","7481","2557"
"474","65","43","Ālètài 阿勒泰","65#43","47.844924","88.141253","新疆 阿勒泰","8161","2685"
"475","65","44","Shíhézǐ 石河子","65#44","44.306119","86.080497","新疆 石河子","12013","3636"
"476","65","1000","Unknown","65#1000","43.793028","87.627812","新疆","74161","12747"
"477","71","1","Táiběishì 台北市","71#1","25.091075","121.5598345","台湾 台北市","190673","33651"
"478","71","2","Gāoxióngshì 高雄市","71#2","23.0108714","120.6660044","台湾 高雄市","40957","10389"
"479","71","3","Jīlóngshì 基隆市","71#3","25.1089809","121.7081454","台湾 基隆市","5610","2318"
"480","71","4","Táizhōngshì 台中市","71#4","24.2332076","120.9417368","台湾 台中市","18352","5620"
"481","71","5","Táinánshì 台南市","71#5","23.1416985","120.2512728","台湾 台南市","6673","2776"
"482","71","6","Xīnzhúshì 新竹市","71#6","24.8039455","120.9646866","台湾 新竹市","7633","3106"
"483","71","7","Jiāyìshì 嘉义市","71#7","23.4588948","120.5739579","台湾 嘉义市","2671","1234"
"484","71","8","Táiběixiàn 台北县","71#8","25.0821655","121.5861875","台湾 台北县","7587","2739"
"485","71","9","Yílánxiàn 宜兰县","71#9","24.6929472","121.7195459","台湾 宜兰县","1920","909"
"486","71","10","Táoyuánxiàn 桃园县","71#10","24.9888889","121.3111111","台湾 桃园县","4814","1965"
"487","71","11","Xīnzhúxiàn 新竹县","71#11","24.7032806","121.1252135","台湾 新竹县","1481","870"
"488","71","12","Miáolìxiàn 苗栗县","71#12","24.4892686","120.9417368","台湾 苗栗县","525","316"
"489","71","13","Táizhōngxiàn 台中县","71#13","24.2332076","120.9417368","台湾 台中县","825","476"
"490","71","14","Zhānghuàxiàn 彰化县","71#14","23.9929743","120.4818446","台湾 彰化县","1308","702"
"491","71","16","Yúnlínxiàn 云林县","71#16","23.7558523","120.3896651","台湾 云林县","3838","1614"
"492","71","18","Táinánxiàn 台南县","71#18","23.1208744","120.358078","台湾 台南县","785","499"
"493","71","19","Gāoxióngxiàn 高雄县","71#19","22.9984690","120.6327670","台湾 高雄县","1130","622"
"494","71","20","Píngdōngxiàn 屏东县","71#20","22.5495057","120.6199895","台湾 屏东县","1113","637"
"495","71","21","Pénghúxiàn 澎湖县","71#21","23.5654787","119.6151426","台湾 澎湖县","1222","556"
"496","71","23","Huāliánxiàn 花莲县","71#23","23.7568986","121.3541631","台湾 花莲县","2058","986"
"497","71","90","Unknown","71#90","23.69781","120.960515","台湾 其他","36503","9661"
"498","71","1000","Unknown","71#1000","23.69781","120.960515","台湾","116254","22878"
"500","81","1","Unknown","81#1","22.279779","114.172783","香港 其他","387193","53814"
"501","81","2","Zhōngxīqū 中西区","81#2","22.2730219","114.1498806","香港 中西区","8217","3369"
"502","81","3","Dōngqū 东区","81#3","22.2733889","114.2360778","香港 东区","7168","2911"
"503","81","4","Jiǔlóngchéngqū 九龙城区","81#4","22.3282","114.19155","香港 九龙城区","27849","7324"
"504","81","5","Guàntángqū 观塘区","81#5","22.31326","114.22581","香港 观塘区","5620","2075"
"505","81","6","Nánqū 南区","81#6","22.2432164","114.1974398","香港 南区","3689","1623"
"506","81","7","Shēnshuǐbùqū 深水埗区","81#7","22.33074","114.1622","香港 深水埗区","4147","1808"
"507","81","8","Huángdàxiānqū 黄大仙区","81#8","22.3429615","114.1929813","香港 黄大仙区","3454","1468"
"508","81","9","Wānzǎiqū 湾仔区","81#9","22.27968","114.17168","香港 湾仔区","12362","4001"
"509","81","10","Yóujiānwàngqū 油尖旺区","81#10","22.3116028","114.1706884","香港 油尖旺区","5881","2242"
"510","81","11","Lídǎoqū 离岛区","81#11","22.2627924","113.9655419","香港 离岛区","2013","968"
"511","81","12","Kuíqīngqū 葵青区","81#12","22.3549077","114.1260991","香港 葵青区","2499","1112"
"512","81","13","Běiqū 北区","81#13","22.5009081","114.1558258","香港 北区","3641","1501"
"513","81","14","Xīgòngqū 西贡区","81#14","22.38143","114.27052","香港 西贡区","2498","1286"
"514","81","15","Shātiánqū 沙田区","81#15","22.386408","114.2093287","香港 沙田区","7081","2801"
"515","81","16","Túnménqū 屯门区","81#16","22.39211","113.97011","香港 屯门区","3942","1438"
"516","81","17","Dàbùqū 大埔区","81#17","22.4408968","114.1647434","香港 大埔区","2282","1049"
"517","81","18","Quánwānqū 荃湾区","81#18","22.3686111","114.1130556","香港 荃湾区","6155","2457"
"518","81","19","Yuánlǎngqū 元朗区","81#19","22.4444694","114.0258","香港 元朗区","6913","2615"
"519","81","1000","Unknown","81#1000","22.396428","114.109497","香港","429627","60159"
"520","82","1","Unknown","82#1","22.198745","113.543873","澳门 其他","123867","21763"
"521","82","2","Huādìmǎtángqū 花地玛堂区","82#2","22.2113799","113.5512735","澳门 花地玛堂区","6680","2320"
"522","82","3","Shèng Ānduōnítángqū 圣安多尼堂区","82#3","22.199095","113.539592","澳门 圣安多尼堂区","4535","1762"
"523","82","4","Dàtángqū 大堂区","82#4","22.1920431","113.5512555","澳门 大堂区","2018","917"
"524","82","5","Wàngdétángqū 望德堂区","82#5","22.1983883","113.5476422","澳门 望德堂区","1247","715"
"525","82","6","Fēngshùntángqū 风顺堂区","82#6","22.191671","113.5357144","澳门 风顺堂区","2280","990"
"526","82","7","Dàngzǎi 氹仔","82#7","22.1533084","113.5563946","澳门 氹仔","6404","2474"
"527","82","8","Lùhuán 路环","82#8","22.1179402","113.5513979","澳门 路环","1189","626"
"528","82","1000","Unknown","82#1000","22.198745","113.543873","澳门","52416","11344"
"530","100","1000","Unknown","100#1000","","","其他","4016823","161202"
"532","400","1","Měiguó 美国","400#1","37.09024","-95.712891","海外 美国","1042557","86042"
"533","400","2","Yīngguó 英国","400#2","55.378051","-3.435973","海外 英国","540899","52575"
"534","400","3","Fǎguó 法国","400#3","46.227638","2.213749","海外 法国","242102","31338"
"535","400","4","Éluósī 俄罗斯","400#4","45.84034","128.846047","海外 俄罗斯","27200","6956"
"536","400","5","Jiānádà 加拿大","400#5","56.130366","-106.346771","海外 加拿大","436958","46812"
"537","400","6","Bāxī 巴西","400#6","-14.235004","-51.92528","海外 巴西","11163","3750"
"538","400","7","Àodàlìyà 澳大利亚","400#7","-25.274398","133.775136","海外 澳大利亚","387903","43051"
"539","400","8","Yìnní 印尼","400#8","-0.79099","113.90625","海外 印尼","8688","3384"
"540","400","9","Tàiguó 泰国","400#9","15.870032","100.992541","海外 泰国","40135","9134"
"541","400","10","Mǎláixīyà 马来西亚","400#10","4.210484","101.975766","海外 马来西亚","102026","15835"
"542","400","11","Xīnjiāpō 新加坡","400#11","1.352083","103.819836","海外 新加坡","174725","24678"
"543","400","12","Fēilǜbīn 菲律宾","400#12","12.879721","121.774017","海外 菲律宾","12180","3867"
"544","400","13","Yuènán 越南","400#13","23.315997","106.809093","海外 越南","10982","3858"
"545","400","14","Yìndù 印度","400#14","20.593684","78.96288","海外 印度","9799","3725"
"546","400","15","Rìběn 日本","400#15","35.1463817","139.6163234","海外 日本","280757","35882"
"547","400","16","Unknown","400#16","","","海外 其他","301630","36743"
"548","400","17","Xīnxīlán 新西兰","400#17","-40.900557","174.885971","海外 新西兰","71364","14028"
"549","400","18","Hánguó 韩国","400#18","35.906849","127.770996","海外 韩国","120208","18913"
"550","400","19","Déguó 德国","400#19","51.165691","10.451526","海外 德国","126022","20182"
"551","400","20","Yìdàlì 意大利","400#20","41.87194","12.56738","海外 意大利","69789","13173"
"552","400","21","Ài'ěrlán 爱尔兰","400#21","53.41291","-8.24389","海外 爱尔兰","30323","6970"
"553","400","22","Hélán 荷兰","400#22","52.132633","5.291266","海外 荷兰","39601","9046"
"554","400","23","Ruìshì 瑞士","400#23","46.818188","8.227512","海外 瑞士","28762","7377"
"555","400","24","Wūkèlán 乌克兰","400#24","48.379433","31.16558","海外 乌克兰","6307","2129"
"556","400","25","Nán Fēi 南非","400#25","-30.559482","22.937506","海外 南非","6295","2571"
"557","400","26","Fēnlán 芬兰","400#26","61.92411","25.748151","海外 芬兰","15678","4838"
"558","400","27","Ruìdiǎn 瑞典","400#27","60.128161","18.643501","海外 瑞典","28681","7590"
"559","400","28","Àodìlì 奥地利","400#28","47.516231","14.550072","海外 奥地利","10223","3339"
"560","400","29","Xībānyá 西班牙","400#29","40.463667","-3.74922","海外 西班牙","48440","10121"
"561","400","30","Bǐlìshí 比利时","400#30","50.503887","4.469936","海外 比利时","12379","4036"
"562","400","31","Nuówēi 挪威","400#31","60.472024","8.468946","海外 挪威","17261","4970"
"563","400","32","Dānmài 丹麦","400#32","56.26392","9.501785","海外 丹麦","13153","3904"
"564","400","33","Bōlán 波兰","400#33","51.919438","19.145136","海外 波兰","3422","1556"
"565","400","34","Āgēntíng 阿根廷","400#34","-38.416097","-63.616672","海外 阿根廷","4717","1859"
"566","400","35","Bái'éluósī 白俄罗斯","400#35","53.709807","27.953389","海外 白俄罗斯","3944","1592"
"567","400","36","Gēlúnbǐyà 哥伦比亚","400#36","4.570868","-74.297333","海外 哥伦比亚","2923","1306"
"568","400","37","Gǔbā 古巴","400#37","21.521757","-77.781167","海外 古巴","3687","1691"
"569","400","38","Āijí 埃及","400#38","26.820553","30.802498","海外 埃及","7399","2800"
"570","400","39","Xīlà 希腊","400#39","39.074208","21.824312","海外 希腊","13856","4089"
"571","400","40","Xiōngyálì 匈牙利","400#40","47.162494","19.503304","海外 匈牙利","4348","1704"
"572","400","41","Yīlǎng 伊朗","400#41","32.427908","53.688046","海外 伊朗","2358","1140"
"573","400","42","Měnggǔ 蒙古","400#42","46.862496","103.846656","海外 蒙古","2205","1063"
"574","400","43","Mòxīgē 墨西哥","400#43","23.634501","-102.552784","海外 墨西哥","3972","1651"
"575","400","44","Pútáoyá 葡萄牙","400#44","39.399872","-8.224454","海外 葡萄牙","5033","1942"
"576","400","45","Shātè Ālābó 沙特阿拉伯","400#45","23.885942","45.079162","海外 沙特阿拉伯","12120","4004"
"577","400","46","Tǔ'ěrqí 土耳其","400#46","38.963745","35.243322","海外 土耳其","3967","1672"
"578","400","1000","Unknown","400#1000","26.804413","104.012075","海外","426805","46516"
"579","1081","17","Unknown","1081#17","","","","0","0"
"580","0","0","Unknown","0#0","","","","110211","14676"
"581","11","0","Unknown","11#0","","","","10653","2888"
"582","52","0","Unknown","52#0","","","","27","25"
"583","31","0","Unknown","31#0","","","","444","247"
"584","71","15","南投县","71#15","23.06475","121.081745","台灣 南投县","535","336"
"585","100","0","Unknown","100#0","","","","3718","1420"
"586","46","0","Unknown","46#0","","","","1123","601"
"587","71","22","台东县","71#22","22.984612","120.987632","台灣 台东县","993","552"
"588","100","1","Unknown","100#1","","","","2119","1013"
"589","50","0","Unknown","50#0","","","","44","42"
"590","41","0","Unknown","41#0","","","","24","24"
"591","71","0","Unknown","71#0","","","","125","98"
"592","400","0","Unknown","400#0","","","","275","156"
"593","32","0","Unknown","32#0","","","","36","30"
"594","100","5","Unknown","100#5","","","","591","349"
"595","1033","3","Unknown","1033#3","","","","52","46"
"596","1033","6","Unknown","1033#6","","","","6","6"
"597","12","0","Unknown","12#0","","","","168","121"
"598","71","17","嘉义县","71#17","23.058752","121.331053","台灣 嘉义县","860","501"
"599","0","1000","Unknown","0#1000","","","","99","79"
"600","15","0","Unknown","15#0","","","","31","30"
"601","37","0","Unknown","37#0","","","","84","63"
"602","100","6","Unknown","100#6","","","","214","142"
"603","1035","2","Unknown","1035#2","","","","75","63"
"604","100","29","Unknown","100#29","","","","90","59"
"605","100","2","Unknown","100#2","","","","480","309"
"606","100","3","Unknown","100#3","","","","582","345"
"607","81","0","Unknown","81#0","","","","183","136"
"608","100","13","Unknown","100#13","","","","37","35"
"609","100","7","Unknown","100#7","","","","55","46"
"610","31","11","Unknown","31#11","","","","11","11"
"611","100","10","Unknown","100#10","","","","105","77"
"612","100","83","Unknown","100#83","","","","218","159"
"613","44","0","Unknown","44#0","","","","27","26"
"614","100","4","Unknown","100#4","","","","204","138"
"615","42","0","Unknown","42#0","","","","89","67"
"616","100","19","Unknown","100#19","","","","78","63"
"617","100","16","Unknown","100#16","","","","149","113"
"618","34","0","Unknown","34#0","","","","6","6"
"619","100","12","Unknown","100#12","","","","0","0"
"620","1035","6","Unknown","1035#6","","","","1","1"
"621","32","18","Unknown","32#18","","","","258","166"
"622","31","2","Unknown","31#2","","","","67","54"
"623","100","11","Unknown","100#11","","","","135","94"
"624","82","0","Unknown","82#0","","","","53","43"
"625","44","10","Unknown","44#10","","","","65","50"
"626","100","9","Unknown","100#9","","","","15","14"
"627","44","11","Unknown","44#11","","","","3","3"
"628","100","8","Unknown","100#8","","","","49","45"
"629","43","0","Unknown","43#0","","","","73","52"
"630","400","52","Unknown","400#52","","","","4","4"
"631","1100","1000","Unknown","1100#1000","","","","14","14"
"632","81","20","Unknown","81#20","","","","11","11"
"633","35","15","Unknown","35#15","","","","21","20"
"634","100","15","Unknown","100#15","","","","147","107"
"635","81","29","Unknown","81#29","","","","16","14"
"636","100","21","Unknown","100#21","","","","88","59"
"637","100","20","Unknown","100#20","","","","45","37"
"638","65","0","Unknown","65#0","","","","16","14"
"639","11","10","Unknown","11#10","","","","33","32"
"640","100","51","Unknown","100#51","","","","21","20"
"641","81","32","Unknown","81#32","","","","11","9"
"642","100","14","Unknown","100#14","","","","75","55"
"643","54","0","Unknown","54#0","","","","84","54"
"644","50","16","Unknown","50#16","","","","2","2"
"645","37","22","Unknown","37#22","","","","32","24"
"646","1044","6","Unknown","1044#6","","","","6","6"
"647","100","25","Unknown","100#25","","","","0","0"
"648","82","20","Unknown","82#20","","","","3","3"
"649","100","27","Unknown","100#27","","","","71","45"
"650","100","28","Unknown","100#28","","","","6","6"
"651","64","11","Unknown","64#11","","","","28","24"
"652","61","0","Unknown","61#0","","","","124","92"
"653","11","45","Unknown","11#45","","","","1","1"
